[
  {
    "index": 1,
    "name": "PAPER & SIP | Coffee, Croissant & Roastery",
    "category": "Kedai Kopi",
    "rating": "4,8",
    "total_reviews": "N/A",
    "address": "Jl. Aria Jipang No.22, Pekiringan, Kec. Kesambi, Kota Cirebon, Jawa Barat 45131",
    "phone": "0822-1939-2789",
    "website": "N/A",
    "hours": "N/A",
    "coordinates": "-6.7295044,108.4773185",
    "scraped_at": "2026-01-31 13:36:03"
  },
  {
    "index": 2,
    "name": "Limalas Cafe",
    "category": "Kafe",
    "rating": "4,8",
    "total_reviews": "N/A",
    "address": "Jl. Kusuma Indah II No.2, Setu Kulon, Kec. Weru, Kabupaten Cirebon, Jawa Barat 45154",
    "phone": "0819-9315-1515",
    "website": "http://lynk.id/limalascafe",
    "hours": "N/A",
    "coordinates": "-6.7295044,108.4773185",
    "scraped_at": "2026-01-31 13:36:07"
  },
  {
    "index": 3,
    "name": "Jiwan Coffee & Things Cirebon",
    "category": "Kafe",
    "rating": "4,5",
    "total_reviews": "N/A",
    "address": "Jl. R.Dewi Sartika No.58, Kenanga, Kec. Sumber, Kabupaten Cirebon, Jawa Barat 45155",
    "phone": "0857-2206-2226",
    "website": "https://sites.google.com/view/jiwancoffeeandthingscrb/click-here-for-more",
    "hours": "N/A",
    "coordinates": "-6.7570612,108.3913735",
    "scraped_at": "2026-01-31 13:36:12"
  },
  {
    "index": 4,
    "name": "Famouz Cafe",
    "category": "Kafe",
    "rating": "4,3",
    "total_reviews": "N/A",
    "address": "Jl. Tuparev No.88A, Pilangsari, Kec. Kedawung, Kabupaten Cirebon, Jawa Barat 45153",
    "phone": "0811-2111-2210",
    "website": "N/A",
    "hours": "N/A",
    "coordinates": "-6.7570612,108.3913735",
    "scraped_at": "2026-01-31 13:36:16"
  },
  {
    "index": 5,
    "name": "Sae Coffee & Dining",
    "category": "Restoran",
    "rating": "4,8",
    "total_reviews": "N/A",
    "address": "Blok Dukusetu 1, Blok Desa No.45155, Bodesari, Kec. Plumbon, Kabupaten Cirebon, Jawa Barat 45155",
    "phone": "0811-1118-8388",
    "website": "https://www.instagram.com/sae.coffeeanddining/",
    "hours": "N/A",
    "coordinates": "-6.7570612,108.3913735",
    "scraped_at": "2026-01-31 13:36:20"
  },
  {
    "index": 6,
    "name": "E Space Coffee",
    "category": "Kedai Kopi",
    "rating": "4,6",
    "total_reviews": "N/A",
    "address": "Jl. Tentara Pelajar No.11, Pekiringan, Kec. Kesambi, Kota Cirebon, Jawa Barat 45153",
    "phone": "0895-0496-4442",
    "website": "N/A",
    "hours": "N/A",
    "coordinates": "-6.715901,108.4798924",
    "scraped_at": "2026-01-31 13:36:24"
  },
  {
    "index": 7,
    "name": "Domoid Coffee and Resto",
    "category": "Kedai Kopi",
    "rating": "4,7",
    "total_reviews": "N/A",
    "address": "Jl. DR. Sudarsono No.45, Kesambi, Kec. Kesambi, Kota Cirebon, Jawa Barat 45134",
    "phone": "0819-0819-2090",
    "website": "N/A",
    "hours": "N/A",
    "coordinates": "-6.715901,108.4798924",
    "scraped_at": "2026-01-31 13:36:28"
  },
  {
    "index": 8,
    "name": "Loko Cafe - Cirebon",
    "category": "Kafe",
    "rating": "4,4",
    "total_reviews": "N/A",
    "address": "Jl. Kartini No.24, Kejaksan, Kec. Kejaksan, Kota Cirebon, Jawa Barat 45122",
    "phone": "N/A",
    "website": "https://instagram.com/lokocafe?igshid=OTJlNzQ0NWM=",
    "hours": "N/A",
    "coordinates": "-6.715901,108.4798924",
    "scraped_at": "2026-01-31 13:36:32"
  },
  {
    "index": 9,
    "name": "Kopi Nako Cirebon",
    "category": "Kedai Kopi",
    "rating": "4,7",
    "total_reviews": "N/A",
    "address": "Jl. Terusan Cipto No.8-6, Pekiringan, Kec. Kesambi, Kota Cirebon, Jawa Barat 45153",
    "phone": "0821-2473-5457",
    "website": "N/A",
    "hours": "N/A",
    "coordinates": "-6.715901,108.4798924",
    "scraped_at": "2026-01-31 13:36:37"
  },
  {
    "index": 10,
    "name": "Oksigen Coffee Cirebon",
    "category": "Kedai Kopi",
    "rating": "4,7",
    "total_reviews": "N/A",
    "address": "Jl. DR. Sutomo No.31, Kesambi, Kec. Kesambi, Kota Cirebon, Jawa Barat 45131",
    "phone": "0822-1766-7181",
    "website": "N/A",
    "hours": "N/A",
    "coordinates": "-6.715901,108.4798924",
    "scraped_at": "2026-01-31 13:36:43"
  },
  {
    "index": 11,
    "name": "Oksigen Coffee Cirebon",
    "category": "N/A",
    "rating": "4,7",
    "total_reviews": "N/A",
    "address": "Jl. Talang No.4, Lemahwungkuk, Kec. Lemahwungkuk, Kota Cirebon, Jawa Barat 45111",
    "phone": "0822-1885-0853",
    "website": "https://instagram.com/niricafe.id?igshid=YmMyMTA2M2Y=",
    "hours": "N/A",
    "coordinates": "-6.715901,108.4798924",
    "scraped_at": "2026-01-31 13:36:51"
  },
  {
    "index": 12,
    "name": "Kopi Manao",
    "category": "Kafe",
    "rating": "4,7",
    "total_reviews": "N/A",
    "address": "Jl. Tuparev No.64, Kedungjaya, Kec. Kedawung, Kabupaten Cirebon, Jawa Barat 45153",
    "phone": "0811-2233-0575",
    "website": "N/A",
    "hours": "N/A",
    "coordinates": "-6.715901,108.4798924",
    "scraped_at": "2026-01-31 13:36:56"
  },
  {
    "index": 13,
    "name": "71 Cafe & Resto",
    "category": "Restoran",
    "rating": "4,7",
    "total_reviews": "N/A",
    "address": "Jl. Fatahillah, Watubelah, Kec. Sumber, Kabupaten Cirebon, Jawa Barat",
    "phone": "0821-1956-9001",
    "website": "N/A",
    "hours": "N/A",
    "coordinates": "-6.7429217,108.4162685",
    "scraped_at": "2026-01-31 13:37:00"
  },
  {
    "index": 14,
    "name": "Markas Cafe",
    "category": "Kafe",
    "rating": "4,3",
    "total_reviews": "N/A",
    "address": "Jl. DR. Cipto Mangunkusumo No.105, Pekiringan, Kec. Kesambi, Kota Cirebon, Jawa Barat 45131",
    "phone": "0818-728-111",
    "website": "https://r.grab.com/g/6-20250423_151229_D443C713293444E3B80E1E53F555D6D5_MEXMPS-IDGFSTI000018qf",
    "hours": "N/A",
    "coordinates": "-6.7429217,108.4162685",
    "scraped_at": "2026-01-31 13:37:05"
  },
  {
    "index": 15,
    "name": "Kopi Buri Umah",
    "category": "Kedai Kopi",
    "rating": "4,7",
    "total_reviews": "N/A",
    "address": "Jl kavling telar asem Blok Dukumalang, Tukmudal, Kec. Sumber, Kabupaten Cirebon, Jawa Barat 45611",
    "phone": "0898-9844-470",
    "website": "https://linktr.ee/buriumah",
    "hours": "N/A",
    "coordinates": "-6.7429217,108.4162685",
    "scraped_at": "2026-01-31 13:37:09"
  },
  {
    "index": 16,
    "name": "Olive Bistro (Cafe & Resto)",
    "category": "Kafe",
    "rating": "4,5",
    "total_reviews": "N/A",
    "address": "Jl. Siliwangi No.80, Kebonbaru, Kec. Kejaksan, Kota Cirebon, Jawa Barat 45121",
    "phone": "(0231) 8300622",
    "website": "https://www.instagram.com/OliveCafeResto",
    "hours": "N/A",
    "coordinates": "-6.7429217,108.4162685",
    "scraped_at": "2026-01-31 13:37:13"
  },
  {
    "index": 17,
    "name": "Saisons Space",
    "category": "Kedai Kopi",
    "rating": "4,8",
    "total_reviews": "N/A",
    "address": "Jl. Sultan Ageng Tirtayasa, Kedungdawa, Kec. Kedawung, Kabupaten Cirebon, Jawa Barat 45153",
    "phone": "N/A",
    "website": "http://www.instagram.com/saisons.space",
    "hours": "N/A",
    "coordinates": "-6.7429217,108.4162685",
    "scraped_at": "2026-01-31 13:37:17"
  },
  {
    "index": 18,
    "name": "My Story Cafe, Bistro & Social House",
    "category": "Kafe",
    "rating": "4,5",
    "total_reviews": "N/A",
    "address": "Jl. Pulasaren No.46, Pulasaren, Kec. Pekalipan, Kota Cirebon, Jawa Barat 45116",
    "phone": "(0231) 8300775",
    "website": "N/A",
    "hours": "N/A",
    "coordinates": "-6.7240546,108.4912629",
    "scraped_at": "2026-01-31 13:37:22"
  },
  {
    "index": 19,
    "name": "Little Black Coffee and Tea",
    "category": "Kedai Kopi",
    "rating": "4,6",
    "total_reviews": "N/A",
    "address": "Jl. Pembangunan Raya No.2a, Pekiringan, Kec. Kesambi, Kabupaten Cirebon, Jawa Barat 45153",
    "phone": "0817-9441-777",
    "website": "N/A",
    "hours": "N/A",
    "coordinates": "-6.7240546,108.4912629",
    "scraped_at": "2026-01-31 13:37:26"
  },
  {
    "index": 20,
    "name": "Ini Kopi Ulon Signature - Tuparev",
    "category": "Kedai Kopi",
    "rating": "4,8",
    "total_reviews": "N/A",
    "address": "Jl. Tuparev No.20, Sutawinangun, Kec. Kedawung, Kabupaten Cirebon, Jawa Barat 45153",
    "phone": "0822-6836-7017",
    "website": "https://inikopiulon.com/",
    "hours": "N/A",
    "coordinates": "-6.7240546,108.4912629",
    "scraped_at": "2026-01-31 13:37:30"
  },
  {
    "index": 21,
    "name": "Safti Coffee & Space",
    "category": "Kedai Kopi",
    "rating": "4,6",
    "total_reviews": "N/A",
    "address": "Soho Patra Park, Jl. Tuparev No.11, Kedawung, Kec. Kedawung, Kabupaten Cirebon, Jawa Barat 45153",
    "phone": "N/A",
    "website": "N/A",
    "hours": "N/A",
    "coordinates": "-6.7240546,108.4912629",
    "scraped_at": "2026-01-31 13:37:34"
  },
  {
    "index": 22,
    "name": "My Story Cafe, Bistro & Social House",
    "category": "Kafe",
    "rating": "4,5",
    "total_reviews": "N/A",
    "address": "Jl. Pulasaren No.46, Pulasaren, Kec. Pekalipan, Kota Cirebon, Jawa Barat 45116",
    "phone": "(0231) 8300775",
    "website": "N/A",
    "hours": "N/A",
    "coordinates": "-6.7240546,108.4912629",
    "scraped_at": "2026-01-31 13:37:38"
  },
  {
    "index": 23,
    "name": "Saisons Space",
    "category": "Kedai Kopi",
    "rating": "4,8",
    "total_reviews": "N/A",
    "address": "Jl. Sultan Ageng Tirtayasa, Kedungdawa, Kec. Kedawung, Kabupaten Cirebon, Jawa Barat 45153",
    "phone": "N/A",
    "website": "http://www.instagram.com/saisons.space",
    "hours": "N/A",
    "coordinates": "-6.7240546,108.4912629",
    "scraped_at": "2026-01-31 13:37:43"
  },
  {
    "index": 24,
    "name": "Komunikoffie",
    "category": "Kedai Kopi",
    "rating": "4,6",
    "total_reviews": "N/A",
    "address": "Jl. Taman Pemuda No.24/88, Sunyaragi, Kec. Kesambi, Kota Cirebon, Jawa Barat 45132",
    "phone": "0811-2409-891",
    "website": "N/A",
    "hours": "N/A",
    "coordinates": "-6.7240546,108.4912629",
    "scraped_at": "2026-01-31 13:37:47"
  },
  {
    "index": 25,
    "name": "The Original Superdog Cirebon",
    "category": "Kafe",
    "rating": "4,7",
    "total_reviews": "N/A",
    "address": "Jl. Flamboyan No.28, Kedungjaya, Kec. Kedawung, Kota Cirebon, Jawa Barat 45153",
    "phone": "0811-2421-748",
    "website": "https://superdog.yokke.biz/",
    "hours": "N/A",
    "coordinates": "-6.7240546,108.4912629",
    "scraped_at": "2026-01-31 13:37:51"
  },
  {
    "index": 26,
    "name": "Kopi Buri Umah",
    "category": "Kedai Kopi",
    "rating": "4,7",
    "total_reviews": "N/A",
    "address": "Jl kavling telar asem Blok Dukumalang, Tukmudal, Kec. Sumber, Kabupaten Cirebon, Jawa Barat 45611",
    "phone": "0898-9844-470",
    "website": "https://linktr.ee/buriumah",
    "hours": "N/A",
    "coordinates": "-6.7563274,108.4019452",
    "scraped_at": "2026-01-31 13:37:55"
  },
  {
    "index": 27,
    "name": "WARUNK NONGKRONG",
    "category": "Kafe",
    "rating": "4,8",
    "total_reviews": "N/A",
    "address": "Jl. Ciremai Raya Ruko No.B/06, Kalijaga, Kec. Harjamukti, Kota Cirebon, Jawa Barat 45144",
    "phone": "0817-1777-7786",
    "website": "https://instagram.com/warunk_nongkrongcrb/",
    "hours": "N/A",
    "coordinates": "-6.7567745,108.4822484",
    "scraped_at": "2026-01-31 13:38:00"
  },
  {
    "index": 28,
    "name": "The Earth Space",
    "category": "Kafe",
    "rating": "4,7",
    "total_reviews": "N/A",
    "address": "Jl. Brigjend Dharsono No.152, Kedawung, Kec. Kedawung, Kabupaten Cirebon, Jawa Barat 45153",
    "phone": "0813-9541-2481",
    "website": "N/A",
    "hours": "N/A",
    "coordinates": "-6.7567745,108.4822484",
    "scraped_at": "2026-01-31 13:38:03"
  },
  {
    "index": 29,
    "name": "Hafa Colonial",
    "category": "Kafe",
    "rating": "4,5",
    "total_reviews": "N/A",
    "address": "Jl. Kanggraksan No.24, Harjamukti, Kec. Harjamukti, Kota Cirebon, Jawa Barat 45143",
    "phone": "0813-2467-6105",
    "website": "N/A",
    "hours": "N/A",
    "coordinates": "-6.7567745,108.4822484",
    "scraped_at": "2026-01-31 13:38:07"
  },
  {
    "index": 30,
    "name": "KEMARE.ID - Latte & Patisserie",
    "category": "Kafe",
    "rating": "4,8",
    "total_reviews": "N/A",
    "address": "Jl. Kp. Melati No.227, Kesambi, Kec. Kesambi, Kota Cirebon, Jawa Barat 45134",
    "phone": "0878-9646-9275",
    "website": "https://linktr.ee/kemare.id",
    "hours": "N/A",
    "coordinates": "-6.7567745,108.4822484",
    "scraped_at": "2026-01-31 13:38:12"
  },
  {
    "index": 31,
    "name": "Loemen'to Cafe & Resto Cirebon",
    "category": "Restoran",
    "rating": "4,3",
    "total_reviews": "N/A",
    "address": "Jl. Prakarsa Muda No.242, Pekiringan, Kec. Kesambi, Kota Cirebon, Jawa Barat 45131",
    "phone": "0857-9754-5141",
    "website": "https://instagram.com/loementocaferesto_cirebon?igshid=YmMyMTA2M2Y=",
    "hours": "N/A",
    "coordinates": "-6.7567745,108.4822484",
    "scraped_at": "2026-01-31 13:38:16"
  },
  {
    "index": 32,
    "name": "About Today Coffee",
    "category": "Kedai Kopi",
    "rating": "4,8",
    "total_reviews": "N/A",
    "address": "6HP6+CV3, Jl. Pamengkang Raya No.14, Pamengkang, Kec. Mundu, Kabupaten Cirebon, Jawa Barat 45173",
    "phone": "0813-2288-0872",
    "website": "N/A",
    "hours": "N/A",
    "coordinates": "-6.7567745,108.4822484",
    "scraped_at": "2026-01-31 13:38:20"
  },
  {
    "index": 33,
    "name": "Macarius All Day Brunch & Gelateria",
    "category": "Kafe",
    "rating": "4,6",
    "total_reviews": "N/A",
    "address": "Jl. Pekalangan No.118, Pekalangan, Kec. Pekalipan, Kota Cirebon, Jawa Barat 45118",
    "phone": "0877-1433-0877",
    "website": "N/A",
    "hours": "N/A",
    "coordinates": "-6.7567745,108.4822484",
    "scraped_at": "2026-01-31 13:38:27"
  },
  {
    "index": 34,
    "name": "Kohitsu Coffee",
    "category": "Kedai Kopi",
    "rating": "4,9",
    "total_reviews": "N/A",
    "address": "Jl. DR. Sudarsono No.274a, Kesambi, Kec. Kesambi, Kota Cirebon, Jawa Barat 45134",
    "phone": "0851-7424-0231",
    "website": "https://www.instagram.com/kohitsu.id",
    "hours": "N/A",
    "coordinates": "-6.7567745,108.4822484",
    "scraped_at": "2026-01-31 13:38:31"
  },
  {
    "index": 35,
    "name": "Feffo Coffee",
    "category": "Kedai Kopi",
    "rating": "4,7",
    "total_reviews": "N/A",
    "address": "Jl. Gunung Mulya, Gg. Harapan V Jalan Kesambi Dalam No.99, RT.004/RW.05, Drajat, Kota Cirebon, Jawa Barat 45133",
    "phone": "N/A",
    "website": "N/A",
    "hours": "N/A",
    "coordinates": "-6.7567745,108.4822484",
    "scraped_at": "2026-01-31 13:38:36"
  },
  {
    "index": 36,
    "name": "Olive Bistro (Cafe & Resto)",
    "category": "Kafe",
    "rating": "4,5",
    "total_reviews": "N/A",
    "address": "Jl. Siliwangi No.80, Kebonbaru, Kec. Kejaksan, Kota Cirebon, Jawa Barat 45121",
    "phone": "(0231) 8300622",
    "website": "https://www.instagram.com/OliveCafeResto",
    "hours": "N/A",
    "coordinates": "-6.7567745,108.4822484",
    "scraped_at": "2026-01-31 13:38:40"
  },
  {
    "index": 37,
    "name": "Rengganis rumah buku & kopi",
    "category": "Kedai Kopi",
    "rating": "4,8",
    "total_reviews": "N/A",
    "address": "Jl. Lap. Udara Jl. Penggung Selatan No.30, Kalijaga, Kec. Harjamukti, Kota Cirebon, Jawa Barat 45144",
    "phone": "0812-8805-0802",
    "website": "https://instagram.com/rumahrengganis?igshid=4nw6to0dg4tj",
    "hours": "N/A",
    "coordinates": "-6.7567745,108.4822484",
    "scraped_at": "2026-01-31 13:38:44"
  },
  {
    "index": 38,
    "name": "Kopi Teras Bumi",
    "category": "Kedai Kopi",
    "rating": "4,6",
    "total_reviews": "N/A",
    "address": "Jl. Harapan No.27, Drajat, Kec. Kesambi, Kota Cirebon, Jawa Barat 45133",
    "phone": "N/A",
    "website": "N/A",
    "hours": "N/A",
    "coordinates": "-6.7567745,108.4822484",
    "scraped_at": "2026-01-31 13:38:48"
  },
  {
    "index": 39,
    "name": "Rammu Café + Resto",
    "category": "Kafe",
    "rating": "4,3",
    "total_reviews": "N/A",
    "address": "Jalan Raya Cirebon Kuningan Blok Pahing, RT.12/RW.05, Patapan, Kec. Beber, Kabupaten Cirebon, Jawa Barat 45172",
    "phone": "0821-2776-1957",
    "website": "N/A",
    "hours": "N/A",
    "coordinates": "-6.7567745,108.4822484",
    "scraped_at": "2026-01-31 13:38:55"
  },
  {
    "index": 40,
    "name": "Sabandina Koffie",
    "category": "Kafe",
    "rating": "4,7",
    "total_reviews": "N/A",
    "address": "Jl. P. Diponegoro No.38, Kesenden, Kec. Kejaksan, Kota Cirebon, Jawa Barat 45121",
    "phone": "0819-3812-3888",
    "website": "https://www.instagram.com/sabandina.koffie/",
    "hours": "N/A",
    "coordinates": "-6.7567745,108.4822484",
    "scraped_at": "2026-01-31 13:39:02"
  },
  {
    "index": 41,
    "name": "Sabandina Koffie",
    "category": "Kafe",
    "rating": "4,7",
    "total_reviews": "N/A",
    "address": "Blok Dukusetu 1, Blok Desa No.45155, Bodesari, Kec. Plumbon, Kabupaten Cirebon, Jawa Barat 45155",
    "phone": "0811-1118-8388",
    "website": "https://www.instagram.com/sae.coffeeanddining/",
    "hours": "N/A",
    "coordinates": "-6.7019511,108.4088348",
    "scraped_at": "2026-01-31 13:39:12"
  },
  {
    "index": 42,
    "name": "Baraja Coffee Amphitheater",
    "category": "Kedai Kopi",
    "rating": "4,1",
    "total_reviews": "N/A",
    "address": "Jl. Tuparev No.60, Kedungjaya, Kec. Kedawung, Kabupaten Cirebon, Jawa Barat 45153",
    "phone": "0851-1708-9827",
    "website": "https://www.barajacoffee.com/",
    "hours": "N/A",
    "coordinates": "-6.7019511,108.4088348",
    "scraped_at": "2026-01-31 13:39:19"
  },
  {
    "index": 43,
    "name": "NANA Riverside Café and Social House",
    "category": "Restoran",
    "rating": "4,6",
    "total_reviews": "N/A",
    "address": "Jl. Kalibaru Utara, Kejaksan, Kec. Kejaksan, Kota Cirebon, Jawa Barat 45123",
    "phone": "0818-0846-2600",
    "website": "N/A",
    "hours": "N/A",
    "coordinates": "-6.7121418,108.4873542",
    "scraped_at": "2026-01-31 13:39:24"
  },
  {
    "index": 44,
    "name": "Kafe Anti Galau",
    "category": "Kedai Kopi",
    "rating": "4,4",
    "total_reviews": "N/A",
    "address": "Sinarrancang, Kec. Mundu, Kabupaten Cirebon, Jawa Barat",
    "phone": "0811-2222-3001",
    "website": "N/A",
    "hours": "N/A",
    "coordinates": "-6.7993107,108.4922134",
    "scraped_at": "2026-01-31 13:39:28"
  },
  {
    "index": 45,
    "name": "Cave Coffee Cirebon",
    "category": "Kedai Kopi",
    "rating": "4,8",
    "total_reviews": "N/A",
    "address": "Goa, Jl. Brigjen Darsono, Sunyaragi, Kec. Kesambi, Kota Cirebon, Jawa Barat 45132",
    "phone": "0877-2992-8666",
    "website": "N/A",
    "hours": "N/A",
    "coordinates": "-6.7993107,108.4922134",
    "scraped_at": "2026-01-31 13:39:33"
  },
  {
    "index": 46,
    "name": "Urffeine Cafe",
    "category": "Kedai Kopi",
    "rating": "4,7",
    "total_reviews": "N/A",
    "address": "Jl. Cendrawasih Jl. Widarasari II No.01, Sutawinangun, Kec. Kedawung, Kabupaten Cirebon, Jawa Barat 45153",
    "phone": "0812-2082-4218",
    "website": "N/A",
    "hours": "N/A",
    "coordinates": "-6.7128614,108.4691137",
    "scraped_at": "2026-01-31 13:39:39"
  },
  {
    "index": 47,
    "name": "Urffeine Cafe",
    "category": "N/A",
    "rating": "4,7",
    "total_reviews": "N/A",
    "address": "Jl. Pangeran Drajat No.47, Drajat, Kec. Kesambi, Kota Cirebon, Jawa Barat 45133",
    "phone": "0812-4599-9938",
    "website": "N/A",
    "hours": "N/A",
    "coordinates": "-6.7128614,108.4691137",
    "scraped_at": "2026-01-31 13:39:45"
  },
  {
    "index": 48,
    "name": "KRK | Kopi Roemah Kesambi",
    "category": "N/A",
    "rating": "4,7",
    "total_reviews": "N/A",
    "address": "Jl. Kesambi Baru Jl. Mawar No.8A, Kesambi, Kec. Kesambi, Kota Cirebon, Jawa Barat 45134",
    "phone": "0813-2232-0160",
    "website": "N/A",
    "hours": "N/A",
    "coordinates": "-6.7128614,108.4691137",
    "scraped_at": "2026-01-31 13:39:50"
  },
  {
    "index": 49,
    "name": "Terajeh Coffee and Steak House",
    "category": "Kedai Kopi",
    "rating": "4,5",
    "total_reviews": "N/A",
    "address": "Jl. Merdeka No.57, Lemahwungkuk, Kec. Lemahwungkuk, Kota Cirebon, Jawa Barat 45111",
    "phone": "0821-1494-1212",
    "website": "N/A",
    "hours": "N/A",
    "coordinates": "-6.7128614,108.4691137",
    "scraped_at": "2026-01-31 13:39:54"
  },
  {
    "index": 50,
    "name": "Ini Kopi Ulon Signature - Tuparev",
    "category": "Kedai Kopi",
    "rating": "4,8",
    "total_reviews": "N/A",
    "address": "Jl. Tuparev No.20, Sutawinangun, Kec. Kedawung, Kabupaten Cirebon, Jawa Barat 45153",
    "phone": "0822-6836-7017",
    "website": "https://inikopiulon.com/",
    "hours": "N/A",
    "coordinates": "-6.7128614,108.4691137",
    "scraped_at": "2026-01-31 13:39:58"
  },
  {
    "index": 51,
    "name": "219 Coffee",
    "category": "Kedai Kopi",
    "rating": "4,9",
    "total_reviews": "N/A",
    "address": "Jl. Jenderal Sudirman No.219, Harjamukti, Kec. Harjamukti, Kota Cirebon, Jawa Barat 45143",
    "phone": "0859-6714-1973",
    "website": "https://instagram.com/219_coffee?igshid=YmMyMTA2M2Y=",
    "hours": "N/A",
    "coordinates": "-6.7128614,108.4691137",
    "scraped_at": "2026-01-31 13:40:03"
  },
  {
    "index": 52,
    "name": "Babeh House Blend",
    "category": "Kafe",
    "rating": "4,6",
    "total_reviews": "N/A",
    "address": "Jl. Pembangunan Raya No.D.16, Tuk, Kec. Kedawung, Kota Cirebon, Jawa Barat 45131",
    "phone": "0813-1506-9450",
    "website": "http://instagram.com/babeh.houseblend",
    "hours": "N/A",
    "coordinates": "-6.7128614,108.4691137",
    "scraped_at": "2026-01-31 13:40:07"
  },
  {
    "index": 53,
    "name": "BARAJA COFFEE SILIWANGI",
    "category": "Kedai Kopi",
    "rating": "4,6",
    "total_reviews": "N/A",
    "address": "Jl. Kedrunan No.11, Kesenden, Kec. Kejaksan, Kota Cirebon, Jawa Barat 45121",
    "phone": "0856-2323-231",
    "website": "N/A",
    "hours": "N/A",
    "coordinates": "-6.7128614,108.4691137",
    "scraped_at": "2026-01-31 13:40:12"
  },
  {
    "index": 54,
    "name": "Versus Cafe&Bar",
    "category": "Bar Dengan Pentas Musik",
    "rating": "4,6",
    "total_reviews": "N/A",
    "address": "Komplek Kagum City, Jl. Tuparev No.28, Kertawinangun, Kec. Kedawung, Kabupaten Cirebon, Jawa Barat 45153",
    "phone": "0811-224-021",
    "website": "https://www.instagram.com/versuscafeandbar/",
    "hours": "N/A",
    "coordinates": "-6.7128614,108.4691137",
    "scraped_at": "2026-01-31 13:40:17"
  },
  {
    "index": 55,
    "name": "N/A",
    "category": "Kafe",
    "rating": "4,6",
    "total_reviews": "N/A",
    "address": "Jl. Kapten Samadikun No.65, Kesenden, Kec. Kejaksan, Kota Cirebon, Jawa Barat 45124",
    "phone": "0896-5145-9968",
    "website": "N/A",
    "hours": "N/A",
    "coordinates": "-6.7128614,108.4691137",
    "scraped_at": "2026-01-31 13:40:24"
  },
  {
    "index": 56,
    "name": "Har's Coffee Snack Cirebon",
    "category": "Toko kopi",
    "rating": "4,9",
    "total_reviews": "N/A",
    "address": "Jl. Taman Pemuda, Sunyaragi, Kec. Kesambi, Kota Cirebon, Jawa Barat 45132",
    "phone": "0813-2421-4295",
    "website": "https://linktr.ee/harscirebon",
    "hours": "N/A",
    "coordinates": "-6.7128614,108.4691137",
    "scraped_at": "2026-01-31 13:40:30"
  },
  {
    "index": 57,
    "name": "Fore Coffee - Tuparev, Cirebon",
    "category": "Kafe",
    "rating": "4,5",
    "total_reviews": "N/A",
    "address": "Jl. Tuparev No.54, Kedungjaya, Kec. Kedawung, Kabupaten Cirebon, Jawa Barat 45153",
    "phone": "0889-7853-5735",
    "website": "http://fore.coffee/",
    "hours": "N/A",
    "coordinates": "-6.7128614,108.4691137",
    "scraped_at": "2026-01-31 13:40:34"
  },
  {
    "index": 58,
    "name": "Garasi Cafe",
    "category": "Kafe",
    "rating": "4,1",
    "total_reviews": "N/A",
    "address": "Jl. Tuparev No.9, Sutawinangun, Kec. Kedawung, Kabupaten Cirebon, Jawa Barat 45153",
    "phone": "0821-2871-6036",
    "website": "N/A",
    "hours": "N/A",
    "coordinates": "-6.7128614,108.4691137",
    "scraped_at": "2026-01-31 13:40:38"
  },
  {
    "index": 59,
    "name": "Tsurayya Cafe",
    "category": "Kedai Kopi",
    "rating": "5,0",
    "total_reviews": "N/A",
    "address": "7F5V+4VX, Watubelah, Kec. Sumber, Kabupaten Cirebon, Jawa Barat",
    "phone": "0851-5785-5530",
    "website": "N/A",
    "hours": "N/A",
    "coordinates": "-6.7128614,108.4691137",
    "scraped_at": "2026-01-31 13:40:42"
  },
  {
    "index": 60,
    "name": "Samakamu kopi",
    "category": "Kafe",
    "rating": "4,6",
    "total_reviews": "N/A",
    "address": "Jl. Tuparev No.323, Kedawung, Kec. Kedawung, Kabupaten Cirebon, Jawa Barat 45153",
    "phone": "0896-5477-8712",
    "website": "N/A",
    "hours": "N/A",
    "coordinates": "-6.7128614,108.4691137",
    "scraped_at": "2026-01-31 13:40:47"
  },
  {
    "index": 61,
    "name": "Berkahjaya Bakehouse",
    "category": "Toko Roti",
    "rating": "4,6",
    "total_reviews": "N/A",
    "address": "Jl. Kisabalanang No.117, Megu Cilik, Kec. Weru, Kabupaten Cirebon, Jawa Barat 45154",
    "phone": "N/A",
    "website": "N/A",
    "hours": "N/A",
    "coordinates": "-6.7128614,108.4691137",
    "scraped_at": "2026-01-31 13:40:51"
  },
  {
    "index": 62,
    "name": "Daily Dose Club ( Coffee & Juice Bar )",
    "category": "Kedai Kopi",
    "rating": "4,6",
    "total_reviews": "N/A",
    "address": "Jl. Kesambi Dalam No.100, Kesambi, Kec. Kesambi, Kota Cirebon, Jawa Barat",
    "phone": "0851-1778-2589",
    "website": "https://dailydoseclub.com/",
    "hours": "N/A",
    "coordinates": "-6.7128614,108.4691137",
    "scraped_at": "2026-01-31 13:40:59"
  },
  {
    "index": 63,
    "name": "Daily Dose Club ( Coffee & Juice Bar )",
    "category": "N/A",
    "rating": "4,7",
    "total_reviews": "N/A",
    "address": "Jl. MT Haryono, Cipeujeuh Wetan, Kec. Lemahabang, Kabupaten Cirebon, Jawa Barat 45183",
    "phone": "0813-1342-7900",
    "website": "N/A",
    "hours": "N/A",
    "coordinates": "-6.8301968,108.5490377",
    "scraped_at": "2026-01-31 13:41:07"
  },
  {
    "index": 64,
    "name": "Kedai Tenggo",
    "category": "Kafe",
    "rating": "4,6",
    "total_reviews": "N/A",
    "address": "Jl. Sunyaragi No.1, Sunyaragi, Kec. Kesambi, Kota Cirebon, Jawa Barat 45132",
    "phone": "0895-2776-6271",
    "website": "http://www.facebook.com/KEDAI.TENGGO",
    "hours": "N/A",
    "coordinates": "-6.7364532,108.4727847",
    "scraped_at": "2026-01-31 13:41:12"
  },
  {
    "index": 65,
    "name": "Mekayo Coffee",
    "category": "Kedai Kopi",
    "rating": "4,7",
    "total_reviews": "N/A",
    "address": "Jl. Pemuda Raya No.11a, Sunyaragi, Kec. Kesambi, Kota Cirebon, Jawa Barat 45132",
    "phone": "0811-2201-414",
    "website": "N/A",
    "hours": "N/A",
    "coordinates": "-6.7364532,108.4727847",
    "scraped_at": "2026-01-31 13:41:17"
  },
  {
    "index": 66,
    "name": "Lakiket Coffee & Chick",
    "category": "Kafe",
    "rating": "4,2",
    "total_reviews": "N/A",
    "address": "7HG3+8C9, Jl. DR. Sutomo No.183, Pekiringan, Kec. Kesambi, Kota Cirebon, Jawa Barat 45131",
    "phone": "0877-1066-0866",
    "website": "N/A",
    "hours": "N/A",
    "coordinates": "-6.7364532,108.4727847",
    "scraped_at": "2026-01-31 13:41:21"
  },
  {
    "index": 67,
    "name": "Coffee By Meraki",
    "category": "Kedai Kopi",
    "rating": "4,5",
    "total_reviews": "N/A",
    "address": "Jl. DR. Sutomo No.185, Pekiringan, Kec. Kesambi, Kota Cirebon, Jawa Barat 45131",
    "phone": "0895-4213-18881",
    "website": "https://www.facebook.com/profile.php?id=100089211844958&mibextid=ZbWKwL",
    "hours": "N/A",
    "coordinates": "-6.7364532,108.4727847",
    "scraped_at": "2026-01-31 13:41:25"
  },
  {
    "index": 68,
    "name": "Pondok Kopi Coffee & Eatery",
    "category": "Kedai Kopi",
    "rating": "4,6",
    "total_reviews": "N/A",
    "address": "Jl. Arif Rahman Hakim No.14, Sindanglaut, Kec. Lemahabang, Kabupaten Cirebon, Jawa Barat 45183",
    "phone": "0812-1033-9868",
    "website": "N/A",
    "hours": "N/A",
    "coordinates": "-6.8345514,108.5441887",
    "scraped_at": "2026-01-31 13:41:29"
  },
  {
    "index": 69,
    "name": "Smiljan Dutchbook",
    "category": "Kafe",
    "rating": "4,7",
    "total_reviews": "N/A",
    "address": "Jl. Ciremai, Kejaksan, Kec. Kejaksan, Kota Cirebon, Jawa Barat 45123",
    "phone": "0817-157-040",
    "website": "N/A",
    "hours": "N/A",
    "coordinates": "-6.7137136,108.4843926",
    "scraped_at": "2026-01-31 13:41:35"
  },
  {
    "index": 70,
    "name": "Fore Coffee - Cirebon Super Block",
    "category": "Kedai Kopi",
    "rating": "4,4",
    "total_reviews": "N/A",
    "address": "Komp. Chelsea Blue Ruko 9 - 10, Jl. DR. Cipto Mangunkusumo No.26, Pekiringan, Kec. Kesambi, Kota Cirebon, Jawa Barat 45131",
    "phone": "0812-1111-8456",
    "website": "http://fore.coffee/",
    "hours": "N/A",
    "coordinates": "-6.7137136,108.4843926",
    "scraped_at": "2026-01-31 13:41:39"
  },
  {
    "index": 71,
    "name": "Cafe Moza",
    "category": "Kafe",
    "rating": "4,2",
    "total_reviews": "N/A",
    "address": "Jl. R.Dewi Sartika No.62 A, Sumber, Kec. Sumber, Kabupaten Cirebon, Jawa Barat 45611",
    "phone": "(0231) 8821909",
    "website": "N/A",
    "hours": "N/A",
    "coordinates": "-6.7597399,108.4094167",
    "scraped_at": "2026-01-31 13:41:44"
  },
  {
    "index": 72,
    "name": "Lumos Cafe & Eatery",
    "category": "Kedai Kopi",
    "rating": "5,0",
    "total_reviews": "N/A",
    "address": "5H32+696, Kamarang, Kec. Greged, Kabupaten Cirebon, Jawa Barat",
    "phone": "0811-2222-061",
    "website": "https://www.instagram.com/lumoscafe16?igsh=MWlzNjFqMGxsODlrYw==",
    "hours": "N/A",
    "coordinates": "-6.8469667,108.4746755",
    "scraped_at": "2026-01-31 13:41:48"
  },
  {
    "index": 73,
    "name": "KANA ARTSPACE",
    "category": "Kafe",
    "rating": "4,6",
    "total_reviews": "N/A",
    "address": "Jl. Arya Kemuning I No.54, Pekiringan, Kec. Kesambi, Kota Cirebon, Jawa Barat 45131",
    "phone": "N/A",
    "website": "https://instagram.com/kana.artspace?igshid=MzRlODBiNWFlZA==",
    "hours": "N/A",
    "coordinates": "-6.7189415,108.4758472",
    "scraped_at": "2026-01-31 13:41:53"
  },
  {
    "index": 74,
    "name": "Cafe Brigade-08 Cirebon",
    "category": "Kafe",
    "rating": "4,9",
    "total_reviews": "N/A",
    "address": "6GH8+6P6, Jl. Ir. Soekarno, Ciperna, Kec. Talun, Kabupaten Cirebon, Jawa Barat 45171",
    "phone": "0812-2219-1980",
    "website": "N/A",
    "hours": "N/A",
    "coordinates": "-6.7189415,108.4758472",
    "scraped_at": "2026-01-31 13:41:57"
  }
]